{
  "bourbons" : [ {
    "location" : {
      "city" : "Clermont",
      "state" : "KY"
    },
    "name" : "Booker's",
    "owner" : "Beam Inc.",
    "producer" : "Jim Beam"
  }, {
    "location" : {
      "city" : "Frankfort",
      "state" : "KY"
    },
    "name" : "Blanton's",
    "owner" : "Sazerac",
    "producer" : "Buffalo Trace"
  }, {
    "location" : {
      "city" : "Clermont",
      "state" : "KY"
    },
    "name" : "Basil Hayden's",
    "owner" : "Beam Inc.",
    "producer" : "Jim Beam"
  }, {
    "location" : {
      "city" : "Frankfort",
      "state" : "KY"
    },
    "imageUrl": "https://firebasestorage.googleapis.com/v0/b/uncorkd-cbf45.appspot.com/o/bottle-buffalo.png?alt=media&token=aa8531b0-85dd-4579-89f4-5ab87b3a3779",
    "name" : "Buffalo Trace",
    "owner" : "Sazerac",
    "producer" : "Buffalo Trace"
  }, {
    "location" : {
      "city" : "Frankfort",
      "state" : "KY"
    },
    "name" : "Eagle Rare",
    "owner" : "Sazerac",
    "producer" : "Buffalo Trace"
  }, {
    "location" : {
      "city" : "Bardstown",
      "state" : "KY"
    },
    "name" : "Old Bardstown",
    "owner" : "Willett Distilling Co., KBD",
    "producer" : "Undisclosed"
  }, {
    "location" : {
      "city" : "Clermont",
      "state" : "KY"
    },
    "name" : "Baker's",
    "owner" : "Beam Inc.",
    "producer" : "Jim Beam"
  }, {
    "location" : {
      "city" : "Frankfort",
      "state" : "KY"
    },
    "name" : "Stagg Jr.",
    "owner" : "Sazerac",
    "producer" : "Buffalo Trace"
  }, {
    "location" : {
      "city" : "Lawrenceburg",
      "state" : "KY"
    },
    "name" : "Four Roses Single Barrel",
    "owner" : "Kirin Company",
    "producer" : "Four Roses"
  }, {
    "location" : {
      "city" : "Frankfort",
      "state" : "KY"
    },
    "name" : "Elmer T. Lee",
    "owner" : "Sazerac",
    "producer" : "Buffalo Trace"
  }, {
    "location" : {
      "city" : "Lawrenceburg",
      "state" : "KY"
    },
    "name" : "Four Roses Small Batch",
    "owner" : "Kirin Company",
    "producer" : "Four Roses"
  }, {
    "location" : {
      "city" : "Bardstown",
      "state" : "KY"
    },
    "name" : "Johnny Drum Private Stock",
    "owner" : "Willett Distilling Co., KBD",
    "producer" : "Willett Distilling Co., KBD"
  }, {
    "location" : {
      "city" : "Frankfort",
      "state" : "KY"
    },
    "name" : "W.L. Weller",
    "owner" : "Sazerac",
    "producer" : "Buffalo Trace"
  }, {
    "location" : {
      "city" : "Frankfort",
      "state" : "KY"
    },
    "name" : "Old Charter",
    "owner" : "Sazerac",
    "producer" : "Buffalo Trace"
  }, {
    "location" : {
      "city" : "Lawrenceburg",
      "state" : "KY"
    },
    "name" : "Four Roses",
    "owner" : "Kirin Company",
    "producer" : "Four Roses"
  }, {
    "location" : {
      "city" : "Frankfort",
      "state" : "KY"
    },
    "name" : "Bench Mark",
    "owner" : "Sazerac",
    "producer" : "Buffalo Trace"
  }, {
    "location" : {
      "city" : "Frankfort",
      "state" : "KY"
    },
    "name" : "Ancient Age",
    "owner" : "Sazerac",
    "producer" : "Buffalo Trace"
  }, {
    "location" : {
      "city" : "Frankfort",
      "state" : "KY"
    },
    "name" : "Old Weller Antique",
    "owner" : "Sazerac",
    "producer" : "Buffalo Trace"
  }, {
    "location" : {
      "city" : "Frankfort",
      "state" : "KY"
    },
    "name" : "W.L. Weller 12 Year",
    "owner" : "Sazerac",
    "producer" : "Buffalo Trace"
  } ]
}
